City_ID,City,Lat,Lng,Max Temp,Humidity,Cloudiness,Wind Speed,Country,Date
0,anaconda,46.1285,-112.9423,38.39,94,81,6.98,US,1706405966
1,nuuk,64.1835,-51.7216,5.61,66,100,13.8,GL,1706405880
2,port-aux-francais,-49.35,70.2167,46.17,90,95,29.53,TF,1706405966
3,taulaga,-11.0553,-171.0883,85.5,69,14,8.95,AS,1706405966
4,edinburgh of the seven seas,-37.0676,-12.3116,58.77,70,100,25.7,SH,1706405966
5,guia lopes da laguna,-21.4578,-56.1142,70.84,45,0,3.94,BR,1706405966
6,la passe,45.5549,-0.8967,43.03,77,100,9.15,FR,1706405966
7,invercargill,-46.4,168.35,61.61,71,98,4.07,NZ,1706405966
8,whitehorse,60.7161,-135.0538,34.11,92,75,15.01,CA,1706405967
9,yellowknife,62.456,-114.3525,0.41,88,20,9.22,CA,1706405967
10,lata,40.1629,-8.3327,47.91,87,67,4.23,PT,1706405967
11,laojunmiao,39.8333,97.7333,19.11,27,2,3.78,CN,1706405967
12,grytviken,-54.2811,-36.5092,42.96,94,100,4.92,GS,1706405967
13,dudinka,69.4058,86.1778,9.63,92,100,18.25,RU,1706405967
14,mount pearl,47.5166,-52.7813,19.72,88,0,9.22,CA,1706405751
15,novyy urgal,51.0736,132.5642,0.23,88,100,0.65,RU,1706405968
16,iguape,-24.7081,-47.5553,72.27,87,33,2.08,BR,1706405968
17,isafjordur,66.0755,-23.124,27.43,89,100,8.39,IS,1706405968
18,ushuaia,-54.8,-68.3,51.46,54,0,4.61,AR,1706405968
19,minas de marcona,-15.2119,-75.1103,67.39,77,31,8.55,PE,1706405968
20,udachny,66.4167,112.4,-29.16,97,10,3.42,RU,1706405968
21,iskateley,67.6803,53.1512,14.22,93,96,15.46,RU,1706405968
22,great bend,38.3645,-98.7648,38.03,86,0,8.05,US,1706405890
23,olonkinbyen,70.9221,-8.7187,25.45,76,100,31.34,SJ,1706405969
24,chinde,26.8418,88.0763,45.9,52,0,3.15,NP,1706405969
25,chonchi,-42.6128,-73.8092,57.31,77,100,3.18,CL,1706405969
26,fisterra,42.9049,-9.2629,50.02,78,99,19.82,ES,1706405969
27,kerema,-7.9631,145.7785,85.48,67,91,5.73,PG,1706405969
28,itamaraca,-7.7478,-34.8256,84.25,80,100,6.93,BR,1706405969
29,bilibino,68.0546,166.4372,-17.48,100,100,4.99,RU,1706405969
30,puerto aysen,-45.4,-72.7,48.92,85,68,3.65,CL,1706405774
31,zhangjiakou,40.81,114.8794,15.08,69,13,3.4,CN,1706405970
32,kirensk,57.7853,108.1119,-31.04,100,24,4.0,RU,1706405970
33,bredasdorp,-34.5322,20.0403,68.72,76,100,1.39,ZA,1706405970
34,waitangi,-43.9535,-176.5597,65.82,97,100,15.23,NZ,1706405970
35,badger,64.8,-147.5333,-32.55,65,75,0.0,US,1706405970
36,la ronge,55.1001,-105.2842,28.65,86,75,6.91,CA,1706405970
37,adamstown,-25.066,-130.1015,76.64,71,100,10.49,PN,1706405970
38,ortaca,36.8294,28.7708,42.6,65,0,5.75,TR,1706405971
39,swift current,50.2834,-107.8014,34.61,80,0,14.97,CA,1706405918
40,utrik,11.2278,169.8474,77.5,63,100,8.86,MH,1706405971
41,papatowai,-46.5619,169.4708,61.18,69,100,9.98,NZ,1706405971
42,hawaiian paradise park,19.5933,-154.9731,82.9,72,20,13.8,US,1706405971
43,avarua,-21.2078,-159.775,87.85,74,40,6.91,CK,1706405971
44,sarangani,5.4033,125.4636,81.54,70,89,1.86,PH,1706405972
45,gorakhpur,29.45,75.6833,50.81,38,93,2.91,IN,1706405972
46,aleksandrovsk-sakhalinskiy,50.8975,142.1561,15.57,91,90,7.72,RU,1706405972
47,flying fish cove,-10.4217,105.6791,82.08,78,100,4.61,CX,1706405972
48,west island,-12.1568,96.8225,80.58,89,100,16.11,CC,1706405972
49,zhalantun,48.0,122.7167,9.45,90,100,4.63,CN,1706405972
50,tondano,1.3038,124.9112,78.89,59,55,3.4,ID,1706405972
51,berryville,36.3648,-93.568,36.52,97,100,7.38,US,1706405972
52,mujiayingzi,42.1167,118.7833,16.63,52,2,5.7,CN,1706405973
53,hermanus,-34.4187,19.2345,66.79,74,100,9.6,ZA,1706405973
54,amarpur,25.0333,86.9,52.92,57,0,2.51,IN,1706405973
55,kone,-21.0595,164.8658,88.68,50,90,6.02,NC,1706405973
56,port mathurin,-19.6833,63.4167,82.2,82,71,18.41,MU,1706405973
57,uturoa,-16.7333,-151.4333,82.87,72,17,3.04,PF,1706405973
58,bethel,41.3712,-73.414,39.76,85,40,0.0,US,1706405677
59,mahibadhoo,3.7833,72.9667,81.64,66,18,15.35,MV,1706405973
60,port elizabeth,-33.918,25.5701,69.31,95,20,9.22,ZA,1706405974
61,iqaluit,63.7506,-68.5145,-32.31,59,20,18.41,CA,1706405974
62,tsiombe,-25.3,45.4833,73.35,88,7,10.16,MG,1706405974
63,vilyuchinsk,52.9306,158.4028,26.26,88,100,3.38,RU,1706405974
64,puerto natales,-51.7236,-72.4875,47.39,84,87,5.39,CL,1706405974
65,college,64.8569,-147.8028,-32.48,60,75,0.0,US,1706405974
66,lompoc,34.6391,-120.4579,65.93,55,0,5.75,US,1706405974
67,juneau,58.3019,-134.4197,41.11,95,75,10.36,US,1706405683
68,igarka,67.4667,86.5833,9.01,94,100,15.86,RU,1706405975
69,teluk nibung,3.001,99.8164,78.66,87,42,6.85,ID,1706405975
70,mount isa,-20.7333,139.5,87.57,58,40,17.27,AU,1706405975
71,codrington,-38.2667,141.9667,74.34,54,75,12.28,AU,1706405975
72,albany,42.6001,-73.9662,37.81,82,100,0.87,US,1706405975
73,anloga,5.7947,0.8973,79.77,64,7,3.09,GH,1706405976
74,chernyshevskiy,63.0128,112.4714,-43.1,100,53,1.68,RU,1706405976
75,tsaratanana,-16.7833,47.65,70.5,92,18,1.14,MG,1706405976
76,galliano,29.4422,-90.2992,60.8,74,87,11.65,US,1706405976
77,thompson,55.7435,-97.8558,23.16,100,100,8.05,CA,1706405976
78,kodiak,57.79,-152.4072,17.11,67,100,9.22,US,1706405812
79,atafu village,-8.5421,-172.5159,84.81,69,3,4.59,TK,1706405977
80,nuku'alofa,-21.1333,-175.2,84.54,70,20,8.05,TO,1706405977
81,xifeng,42.7372,124.7222,15.51,78,6,4.43,CN,1706405977
82,qaqortoq,60.7167,-46.0333,-16.15,70,1,8.23,GL,1706405977
83,mancio lima,-7.6142,-72.8958,77.09,85,100,0.58,BR,1706405977
84,frenda,35.0654,1.0495,45.37,24,75,6.78,DZ,1706405977
85,kristiansund,63.1115,7.732,41.65,87,100,9.22,NO,1706405977
86,cabedelo,-6.9811,-34.8339,83.07,77,85,9.28,BR,1706405978
87,kingston,17.997,-76.7936,79.75,74,20,14.97,JM,1706405735
88,hecun,36.5333,114.1111,36.0,33,0,3.47,CN,1706405978
89,bogande,12.9714,-0.1436,66.11,21,23,8.93,BF,1706405978
90,glace bay,46.1969,-59.957,29.98,83,100,4.61,CA,1706405978
91,vorgashor,67.5833,63.95,10.31,96,99,10.27,RU,1706405979
92,hasaki,35.7333,140.8333,46.29,51,100,2.75,JP,1706405979
93,dame-marie,18.5667,-74.4167,75.67,76,7,4.81,HT,1706405979
94,georgetown,5.4112,100.3354,82.33,77,20,9.22,MY,1706405979
95,taro,-8.3862,115.28,75.2,74,87,1.66,ID,1706405979
96,zavodoukovsk,56.5042,66.5515,7.86,97,100,3.13,RU,1706405980
97,kalmunai,7.4167,81.8167,79.03,81,100,12.28,LK,1706405980
98,thunder bay,48.4001,-89.3168,31.98,80,100,4.61,CA,1706405980
99,blackmans bay,-43.0167,147.3167,69.93,64,65,8.21,AU,1706405980
100,ilulissat,69.2167,-51.1,-11.18,64,66,6.91,GL,1706405980
101,margaret river,-33.95,115.0667,65.48,78,100,16.98,AU,1706405980
102,kas,36.2018,29.6377,48.31,50,1,4.97,TR,1706405980
103,soio,-6.1349,12.3689,80.06,87,87,7.07,AO,1706405981
104,lorengau,-2.0226,147.2712,83.43,79,75,6.02,PG,1706405981
105,nova xavantina,-14.6667,-52.35,73.78,85,3,1.92,BR,1706405981
106,longyearbyen,78.2186,15.6401,22.84,74,40,28.77,SJ,1706405981
107,tangalle,6.024,80.7911,77.16,87,46,7.29,LK,1706405981
108,luderitz,-26.6481,15.1594,63.43,92,85,5.68,NA,1706405981
109,talnakh,69.4865,88.3972,9.21,93,100,12.44,RU,1706405981
110,dunedin,-45.8742,170.5036,64.33,61,100,11.43,NZ,1706405981
111,hopelchen,19.7667,-89.85,71.47,97,22,2.8,MX,1706405982
112,pisco,-13.7,-76.2167,75.25,88,20,4.61,PE,1706405982
113,keflavik,64.0049,-22.5624,32.43,80,75,6.91,IS,1706405982
114,palm springs,33.8303,-116.5453,70.32,38,92,2.66,US,1706405982
115,magadi,12.9667,77.2333,66.36,88,37,6.35,IN,1706405982
116,tshabong,-26.05,22.45,72.25,72,100,2.33,BW,1706405982
117,chaman,30.9236,66.4512,51.06,85,100,6.15,PK,1706405983
118,alaghsas,17.0187,8.0168,62.67,25,0,16.06,NE,1706405983
119,ribeira grande,38.5167,-28.7,56.77,77,100,3.0,PT,1706405983
120,ust-nera,64.5667,143.2,-38.9,98,74,6.26,RU,1706405983
121,aasiaat,68.7098,-52.8699,-25.76,100,79,6.62,GL,1706405983
122,port lincoln,-34.7333,135.8667,71.46,60,0,8.01,AU,1706405983
123,khandyga,62.6667,135.6,-32.24,95,35,0.54,RU,1706405983
124,anadyr,64.75,177.4833,-19.7,75,13,13.42,RU,1706405983
125,cholpon-ata,42.6494,77.0823,30.25,59,99,4.81,KG,1706405984
126,tauranga,-37.6861,176.1667,72.86,95,100,1.01,NZ,1706405984
127,tura,25.5198,90.2201,58.37,57,0,2.13,IN,1706405984
128,vila franca do campo,37.7167,-25.4333,59.41,85,45,10.67,PT,1706405984
129,rongelap,11.1635,166.8941,79.07,63,100,11.14,MH,1706405984
130,enewetak,11.3474,162.3373,78.19,67,100,9.89,MH,1706405984
131,pimentel,-6.8367,-79.9342,77.29,78,0,16.11,PE,1706405984
132,petropavlovsk-kamchatsky,53.0452,158.6483,24.78,83,75,6.71,RU,1706405894
133,okhotsk,59.3833,143.3,-4.23,72,29,12.8,RU,1706405985
134,mirnyy,62.5353,113.9611,-35.9,100,38,3.47,RU,1706405985
135,chardara,41.2547,67.9692,42.64,63,100,6.35,KZ,1706405985
136,mount gambier,-37.8333,140.7667,75.0,49,79,8.25,AU,1706405985
137,lihue,21.9789,-159.3672,81.73,57,20,20.71,US,1706405985
138,constantia,44.1833,28.65,32.7,84,96,14.79,RO,1706405770
139,yasnyy,51.0333,59.8742,1.0,75,100,2.55,RU,1706405986
140,talcahuano,-36.7167,-73.1167,65.88,72,0,12.66,CL,1706405986
141,arraial do cabo,-22.9661,-42.0278,75.69,92,100,4.0,BR,1706405986
142,nianzishan,47.5167,122.8833,8.65,90,100,3.51,CN,1706405986
143,tubarjal,30.4999,38.216,44.38,79,6,6.62,SA,1706405986
144,redmond,47.674,-122.1215,57.78,93,100,4.0,US,1706405986
145,zuwarah,32.9312,12.082,59.41,82,77,11.63,LY,1706405986
146,qarazhal,48.0078,70.7903,-0.18,91,43,6.93,KZ,1706405987
147,antonio enes,-16.2325,39.9086,73.87,90,6,4.61,MZ,1706405987
148,wailua homesteads,22.0669,-159.378,81.12,63,20,20.71,US,1706405987
149,nova sintra,14.8667,-24.7167,70.32,72,59,14.2,CV,1706405987
150,gisborne,-38.6533,178.0042,77.05,67,100,8.93,NZ,1706405987
151,raduzhny,62.0961,77.475,-2.02,99,100,5.21,RU,1706405987
152,puerto deseado,-47.7503,-65.8938,64.09,35,0,18.28,AR,1706405987
153,zaozersk,69.4005,32.4476,33.12,83,64,35.86,RU,1706405988
154,tazovsky,67.4667,78.7,12.09,95,100,9.57,RU,1706405988
155,yilan,24.757,121.753,56.55,82,100,3.67,TW,1706405988
156,sandakan,5.8402,118.1179,82.08,78,40,9.22,MY,1706405988
157,opuwo,-18.0607,13.84,72.5,53,4,3.49,NA,1706405988
158,isangel,-19.55,169.2667,86.11,62,40,6.91,VU,1706405867
159,faya-largeau,17.9257,19.1043,59.61,35,86,14.23,TD,1706405988
160,jamestown,42.097,-79.2353,41.02,99,100,5.01,US,1706405435
161,villa gesell,-37.2639,-56.973,71.06,81,99,15.3,AR,1706405989
162,fale old settlement,-9.3852,-171.2468,85.1,69,41,4.56,TK,1706405989
163,puerto ayora,-0.7393,-90.3518,79.3,79,91,5.79,EC,1706405989
164,mutsu,41.2894,141.2169,38.39,60,9,4.88,JP,1706405989
165,yung shue wan,22.2333,114.1167,57.31,87,99,6.4,HK,1706405989
166,nazarovo,56.0064,90.3914,-3.37,98,90,1.99,RU,1706405989
167,punta arenas,-53.15,-70.9167,51.91,66,0,32.21,CL,1706405989
168,necochea,-38.5473,-58.7368,76.6,32,99,17.34,AR,1706405990
169,ad dilam,23.9915,47.1627,56.79,39,83,3.29,SA,1706405990
170,sidi ifni,29.3797,-10.173,62.35,35,1,6.04,MA,1706405990
171,robertsport,6.7533,-11.3686,81.5,82,6,4.03,LR,1706405990
172,guaraniacu,-25.1008,-52.8781,57.34,97,95,1.21,BR,1706405990
173,san julian,21.0167,-102.1667,60.73,21,0,3.89,MX,1706405990
174,tarko-sale,64.9225,77.785,8.28,95,100,9.33,RU,1706405990
175,grand gaube,-20.0064,57.6608,79.38,94,70,10.67,MU,1706405990
176,kahror pakka,29.6238,71.9167,55.87,29,100,3.85,PK,1706405990
177,saipan,15.1355,145.701,81.3,65,75,17.27,MP,1706405991
178,shahrak,34.1074,64.3052,36.5,86,98,5.08,AF,1706405991
179,el alto,-4.2714,-81.2147,74.86,82,26,8.32,PE,1706405991
180,egilsstadir,65.2653,-14.3948,22.91,86,75,6.91,IS,1706405991
181,essaouira,31.5125,-9.77,60.3,36,40,4.61,MA,1706405991
182,mugia,43.1041,-9.2179,50.16,76,97,18.07,ES,1706405991
183,mangrol,21.1167,70.1167,66.58,39,5,6.89,IN,1706405991
184,temirtau,50.0544,72.9483,-5.19,100,93,5.3,KZ,1706405991
185,el tocuyo,9.7873,-69.7937,69.62,70,12,2.28,VE,1706405991
186,iwon-up,40.3231,128.6553,31.51,80,79,2.42,KP,1706405992
187,greystones,53.1408,-6.0631,52.81,94,100,4.0,IE,1706405992
188,dwarka,22.2394,68.9678,67.82,56,52,5.66,IN,1706405992
189,babolsar,36.7025,52.6576,48.52,90,100,17.4,IR,1706405992
190,afaahiti,-17.75,-149.2833,84.06,77,96,4.45,PF,1706405992
191,qandala,11.472,49.8728,76.86,83,97,1.86,SO,1706405992
192,hithadhoo,-0.6,73.0833,81.9,71,100,11.16,MV,1706405992
193,kattivakkam,13.2167,80.3167,78.89,79,29,10.16,IN,1706405992
194,saijo,33.9167,133.1833,52.14,61,99,7.18,JP,1706405993
195,yreka,41.7354,-122.6345,53.78,92,100,3.44,US,1706405993
196,port alfred,-33.5906,26.891,69.19,95,64,11.5,ZA,1706405993
197,bonthe,7.5264,-12.505,78.73,89,5,3.96,SL,1706405993
198,kavaratti,10.5669,72.642,80.24,71,91,2.73,IN,1706405993
199,koryazhma,61.3143,47.1691,6.91,99,100,3.85,RU,1706405993
200,hammerfest,70.6634,23.6821,34.25,86,75,33.38,NO,1706405993
201,haiku-pauwela,20.9219,-156.3051,80.17,68,40,19.57,US,1706405994
202,kuala belait,4.5833,114.1833,77.16,75,82,10.38,BN,1706405994
203,arar,30.9753,41.0381,44.62,76,0,14.97,SA,1706405994
204,'ain el bell,34.3438,3.2247,52.99,29,6,2.46,DZ,1706405994
205,paciran,-6.8767,112.3761,83.14,74,91,8.37,ID,1706405994
206,yuzhno-kurilsk,44.0306,145.8556,28.38,85,100,9.78,RU,1706405994
207,tomatlan,19.9333,-105.25,68.77,90,0,0.6,MX,1706405994
208,orosei,40.3798,9.6929,55.18,79,2,2.33,IT,1706405995
209,hargeysa,9.56,44.065,63.14,96,84,8.1,SO,1706405995
210,seminole,28.7086,-81.2081,77.22,75,0,10.36,US,1706405836
211,basco,20.4487,121.9702,73.26,68,95,16.78,PH,1706405995
212,alice springs,-23.7,133.8833,89.15,13,11,10.36,AU,1706405995
213,pandan,14.0453,124.1694,78.12,70,99,19.06,PH,1706405995
214,crucecita,-28.95,-58.9833,69.08,73,0,6.8,AR,1706405995
215,jianshui,23.6363,102.8264,51.49,96,100,3.44,CN,1706405996
216,suva,-18.1416,178.4415,85.48,66,40,5.75,FJ,1706405996
217,kiiminki,65.1314,25.7974,29.86,100,46,12.88,FI,1706405996
218,port saint john's,-31.6229,29.5448,71.62,84,10,5.03,ZA,1706405996
219,volzhskiy,48.7858,44.7797,18.91,83,100,9.62,RU,1706405996
220,east london,-33.0153,27.9116,70.97,78,79,8.46,ZA,1706405996
221,polyarnyy,69.1989,33.4478,33.57,80,88,35.25,RU,1706405996
222,murakami,38.2333,139.4833,39.09,62,100,6.17,JP,1706405996
223,koregaon,18.65,74.0833,67.01,50,46,4.16,IN,1706405997
224,miracema,-21.4122,-42.1967,73.42,98,100,0.92,BR,1706405997
225,bikenibeu village,1.3673,173.1241,80.56,83,100,8.05,KI,1706405997
226,karatuzskoye,53.6072,92.8667,-18.62,100,69,1.01,RU,1706405997
227,freeport,40.6576,-73.5832,44.98,85,100,6.91,US,1706405711
228,anuradhapura,8.3565,80.4173,72.68,89,73,4.85,LK,1706405997
229,fort-shevchenko,44.5086,50.263,33.76,78,100,5.55,KZ,1706405997
230,ornskoldsvik,63.2909,18.7153,27.55,93,100,3.44,SE,1706405997
231,kailua-kona,19.6406,-155.9956,80.56,75,20,16.11,US,1706405998
232,linhares,-19.3911,-40.0722,74.19,95,100,1.74,BR,1706405998
233,kapuskasing,49.4169,-82.4331,30.29,86,100,6.91,CA,1706405998
234,onguday,50.75,86.15,0.1,95,100,3.0,RU,1706405998
235,usiacuri,10.75,-74.9833,77.52,86,47,9.51,CO,1706405998
236,twin falls,42.3505,-114.6445,37.92,87,100,3.44,US,1706405998
237,caleta de carquin,-11.0925,-77.6267,75.13,80,79,8.61,PE,1706405998
238,lebu,-37.6167,-73.65,58.15,86,12,17.94,CL,1706405998
239,awjilah,29.1081,21.2869,52.23,76,0,5.59,LY,1706405998
240,tralee,52.2704,-9.7026,49.5,94,95,9.46,IE,1706405999
241,klyuchi,52.2667,79.1667,8.73,96,99,6.76,RU,1706405999
242,hays,30.0502,-98.0336,55.33,73,0,7.09,US,1706405999
243,khandud,36.9513,72.318,22.71,73,100,7.14,AF,1706405999
244,remire-montjoly,4.9167,-52.2667,78.84,83,40,2.3,GF,1706405999
245,mukalla,14.5425,49.1242,71.8,82,96,2.04,YE,1706405999
246,vernon,50.2581,-119.2691,40.6,92,100,2.3,CA,1706405999
247,vel'sk,61.0701,42.0983,10.27,99,100,3.0,RU,1706406000
248,leopoldina,-21.5319,-42.6431,72.27,99,100,1.54,BR,1706405710
249,wodonga,-36.1167,146.8833,84.96,84,62,2.89,AU,1706406000
250,ataq,14.5377,46.8319,64.78,81,74,5.57,YE,1706406001
251,altay,47.8667,88.1167,7.52,61,5,6.96,CN,1706406001
252,kanniyakumari,8.0833,77.5667,75.69,73,19,20.58,IN,1706406001
253,i-n-salah,27.1935,2.4607,59.16,26,0,15.26,DZ,1706406001
254,happy valley-goose bay,53.3168,-60.3315,26.91,80,75,10.36,CA,1706406001
255,pagar alam,-4.0167,103.2667,74.12,91,91,2.55,ID,1706406002
256,yokadouma,3.5167,15.05,67.73,43,7,2.35,CM,1706406002
257,stanley,54.868,-1.6985,41.29,83,0,5.75,GB,1706406002
258,horta,38.5333,-28.6333,56.01,77,100,3.0,PT,1706406002
259,ghadamis,30.1337,9.5007,54.01,46,0,4.97,LY,1706406002
260,kaya,13.0917,-1.0844,65.46,21,38,8.79,BF,1706406003
261,aykhal,66.0,111.5,-14.76,79,0,3.29,RU,1706406003
262,ariquemes,-9.9133,-63.0408,74.32,98,88,2.53,BR,1706406003
263,corner brook,48.9667,-57.9484,26.76,98,100,4.16,CA,1706406003
264,aketi,2.7388,23.7833,68.43,49,21,1.54,CD,1706406003
265,vurnary,55.4904,46.9648,11.17,98,100,2.48,RU,1706406004
266,siwa oasis,29.2041,25.5195,53.17,58,0,6.62,EG,1706406004
267,coxen hole,16.3244,-86.5366,79.88,74,0,11.5,HN,1706406004
268,kupiskis,55.8333,24.9667,24.94,97,75,4.76,LT,1706406004
269,jinghong,21.991,100.7341,61.38,93,93,1.16,CN,1706406004
270,meadow lakes,61.6247,-149.6011,3.2,77,20,0.0,US,1706406005
271,oranjemund,-28.55,16.4333,63.46,94,85,2.91,NA,1706406005
272,san patricio,28.017,-97.5169,62.91,69,0,6.62,US,1706406005
273,hinton,53.4001,-117.5857,32.79,88,100,8.08,CA,1706406006
274,labytnangi,66.6572,66.4183,-9.62,100,77,3.78,RU,1706406006
275,carnarvon,-24.8667,113.6333,80.1,64,0,11.56,AU,1706406006
276,illizi,26.4833,8.4667,49.8,31,0,3.04,DZ,1706406006
277,inhambane,-23.865,35.3833,74.79,83,88,7.45,MZ,1706406006
278,selfoss,63.9331,-20.9971,32.04,94,100,7.18,IS,1706406007
279,san juan,-31.5375,-68.5364,86.77,31,100,11.41,AR,1706405759
280,medina,24.4686,39.6142,57.63,47,0,5.75,SA,1706406007
281,bereznik,62.8551,42.7072,20.79,93,100,6.73,RU,1706406007
282,beatrice,40.2681,-96.747,32.18,93,0,0.0,US,1706405801
283,qianzhou,28.3167,109.7167,45.97,54,87,2.19,CN,1706406007
284,nar'yan-mar,67.6713,53.087,14.56,93,95,15.32,RU,1706406008
285,borba,-4.3878,-59.5939,74.16,98,99,2.24,BR,1706405874
286,nizhneangarsk,55.7833,109.55,-13.0,77,0,8.01,RU,1706406008
287,bor,56.3567,44.0669,24.73,97,93,0.65,RU,1706406008
288,novodnistrovsk,48.5849,27.4311,25.95,92,65,6.33,UA,1706406008
289,zouerate,22.7187,-12.4521,62.13,21,0,7.85,MR,1706406008
290,arteche,12.2645,125.4048,76.62,85,100,15.05,PH,1706406008
291,ulsteinvik,62.3432,5.8487,45.32,90,100,21.0,NO,1706406008
292,sitka,57.0531,-135.33,44.49,93,100,10.36,US,1706406009
293,darwin,-12.4611,130.8418,82.89,85,100,1.01,AU,1706406009
294,coquimbo,-29.9533,-71.3436,64.13,88,100,5.75,CL,1706406009
295,lubang,13.8584,120.124,77.85,69,87,26.13,PH,1706406009
296,abdulino,53.7,53.6667,-1.17,100,99,1.92,RU,1706406009
297,ellensburg,46.9965,-120.5479,38.01,95,100,0.0,US,1706406009
298,tevriz,57.509,72.4042,-18.65,100,100,2.68,RU,1706406009
299,kafir qala,34.6667,61.0667,57.11,54,95,18.01,AF,1706406010
300,castillos,-34.1667,-53.8333,67.01,84,12,8.03,UY,1706406010
301,fort st. john,56.2499,-120.8529,40.89,70,75,6.91,CA,1706406010
302,rabo de peixe,37.8,-25.5833,58.51,72,40,11.5,PT,1706406010
303,talakan,50.3167,130.3667,4.32,89,100,2.04,RU,1706406010
304,ancud,-41.8697,-73.8203,55.42,74,100,5.48,CL,1706406010
305,burang,30.25,81.1667,16.75,46,0,3.2,CN,1706406011
306,chemin grenier,-20.4872,57.4656,78.39,89,99,8.21,MU,1706406011
307,hotan,37.0997,79.9269,21.29,56,93,0.09,CN,1706406011
308,hamilton,39.1834,-84.5333,43.93,95,100,18.41,US,1706405779
309,assab,13.0092,42.7394,77.23,85,97,18.66,ER,1706406011
310,krasnaya gora,52.9995,31.6023,11.97,97,78,6.31,RU,1706406011
311,santa marta,11.2408,-74.199,84.25,61,34,13.8,CO,1706406012
312,rio grande,-32.035,-52.0986,70.48,81,100,13.29,BR,1706406012
313,nchelenge,-9.3451,28.734,68.88,90,61,3.67,ZM,1706406012
314,strezhevoy,60.7333,77.5889,-4.04,100,100,4.0,RU,1706406012
315,kotido,2.9806,34.1331,72.07,59,41,5.23,UG,1706406012
316,labrador city,52.9463,-66.9114,24.71,80,100,17.27,CA,1706406012
317,luganville,-15.5333,167.1667,84.76,61,100,6.08,VU,1706406013
318,nabire,-3.3667,135.4833,87.17,56,92,3.8,ID,1706406013
319,kapa'a,22.0752,-159.319,82.47,63,20,20.71,US,1706406013
320,strugi-krasnyye,58.2675,29.1114,21.0,95,90,6.13,RU,1706406013
321,juan griego,11.0817,-63.9655,75.61,88,1,10.83,VE,1706406013
322,tamanrasset,22.785,5.5228,55.31,14,0,4.61,DZ,1706406013
323,guiuan,11.0333,125.7247,80.85,72,100,18.45,PH,1706406014
324,san luis de la loma,17.2706,-100.8939,76.64,74,0,4.9,MX,1706406014
325,xishan,27.6667,113.5,44.31,78,100,0.54,CN,1706406014
326,ujae,8.9322,165.7642,79.7,63,56,12.66,MH,1706406014
327,togur,58.3631,82.8265,6.15,97,100,4.0,RU,1706406014
328,palmer,42.1584,-72.3287,38.86,83,100,5.75,US,1706406015
329,maraba,-5.3686,-49.1178,73.58,100,75,1.14,BR,1706406015
330,ondjiva,-17.0667,15.7333,73.44,73,0,2.3,AO,1706406015
331,zhangye,38.9342,100.4517,21.0,34,0,3.24,CN,1706406015
332,ormara,25.2088,64.6357,70.09,71,100,1.25,PK,1706406015
333,saint-philippe,-21.3585,55.7679,76.59,88,94,12.08,RE,1706406015
334,argo,37.6333,22.7333,45.09,72,43,3.06,GR,1706406015
335,center,31.5107,-96.4247,49.24,79,0,9.22,US,1706406016
336,terrace,54.5163,-128.6035,37.31,100,100,3.44,CA,1706406016
337,ola,59.5833,151.2833,-2.87,78,44,4.03,RU,1706406016
338,cabo san lucas,22.8909,-109.9124,75.51,68,0,11.5,MX,1706406016
339,tabou,4.423,-7.3528,79.77,84,28,2.46,CI,1706406016
340,kasongo-lunda,-6.4667,16.8167,71.02,98,100,1.63,CD,1706406016
341,chukhloma,58.7525,42.6825,-1.91,100,100,1.01,RU,1706406016
342,mossel bay,-34.1831,22.146,66.13,85,100,2.8,ZA,1706406017
343,puerto baquerizo moreno,-0.9,-89.6,79.14,79,98,9.01,EC,1706406017
344,pumiao,22.75,108.4833,46.8,81,100,3.96,CN,1706406017
345,tommot,58.9564,126.2925,-20.42,95,100,2.75,RU,1706406017
346,emiliano zapata,18.8333,-99.1833,81.21,12,0,2.3,MX,1706406017
347,salinopolis,-0.6136,-47.3561,79.45,86,74,10.07,BR,1706406017
348,vorkuta,67.5,64.0,10.44,96,98,9.71,RU,1706406017
349,wagar,16.1525,36.2032,64.4,76,57,10.83,SD,1706406018
350,saint-francois,46.4154,3.9054,39.65,100,53,3.44,FR,1706406018
351,marka,1.7159,44.7717,78.21,89,11,12.12,SO,1706406018
352,saldanha,-33.0117,17.9442,68.05,94,100,7.0,ZA,1706406019
353,ustyuzhna,58.8394,36.4321,18.27,95,100,4.38,RU,1706406019
354,sinabang,2.4803,96.3801,81.18,78,99,1.43,ID,1706406019
355,ishqoshim,36.7248,71.6133,24.71,67,93,3.04,TJ,1706406020
356,pangody,65.85,74.4859,12.96,96,100,8.01,RU,1706406021
357,tabira,-7.5908,-37.5394,75.04,73,90,6.26,BR,1706406021
358,susuman,62.7833,148.1667,-39.28,99,88,1.21,RU,1706406021
359,garachico,28.7781,-17.7646,65.48,32,0,2.3,ES,1706406021
360,sao vicente,-23.9631,-46.3919,77.18,91,26,2.71,BR,1706406021
361,buala,-8.145,159.5921,84.43,72,94,8.1,SB,1706406022
362,san antonio de pale,-1.4014,5.6325,82.29,75,92,6.8,GQ,1706406022
363,daru,-9.0763,143.2092,90.0,55,10,10.6,PG,1706406022
364,bodo,67.28,14.405,39.24,77,75,33.38,NO,1706406022
365,iquique,-20.2208,-70.1431,73.44,83,36,1.36,CL,1706405926
366,tvoroyri,61.5556,-6.8111,47.59,93,100,38.07,FO,1706406022
367,bengkulu,-3.8004,102.2655,80.89,79,70,2.62,ID,1706406022
368,moyale,3.5167,39.0584,72.23,52,56,8.34,KE,1706406023
369,lesnoy,57.6198,63.0784,8.29,92,100,4.38,RU,1706406023
370,namibe,-15.1961,12.1522,73.71,83,28,3.4,AO,1706406024
371,namsos,64.4662,11.4957,41.05,87,75,4.61,NO,1706406024
372,jalqani,12.4486,34.2186,65.28,25,87,7.09,SD,1706406024
373,okakarara,-20.5833,17.4333,72.12,61,94,2.42,NA,1706406024
374,guarapari,-20.6667,-40.4975,74.89,92,100,6.85,BR,1706406024
375,carbonear,47.7332,-53.2148,21.11,88,14,7.65,CA,1706406025
376,galiakot,23.5167,74.0,59.81,41,14,4.36,IN,1706406025
377,mahina,-17.5065,-149.489,85.75,74,75,3.44,PF,1706406025
378,ozersk,55.7556,60.7028,8.33,96,99,3.04,RU,1706406026
379,novokruchininskiy,51.7833,113.7667,-13.4,83,8,2.37,RU,1706406026
380,tiksi,71.6872,128.8694,-11.78,84,90,12.66,RU,1706406026
381,rajapolah,-7.221,108.1896,81.39,74,34,0.38,ID,1706406027
382,mincivan,39.0294,46.7185,36.28,91,100,3.76,AZ,1706406027
383,oltinko'l,40.8011,72.1634,41.14,43,100,2.73,UZ,1706406027
384,assens,55.2702,9.9008,39.52,94,62,12.41,DK,1706406027
385,canutama,-6.5339,-64.3831,75.09,99,97,2.44,BR,1706406028
386,copiapo,-27.3667,-70.3333,62.29,67,0,2.35,CL,1706406028
387,malkapur,20.8833,76.2,64.65,37,84,5.01,IN,1706406028
388,nouadhibou,20.931,-17.0347,67.98,45,11,12.66,MR,1706406028
389,winchester,51.0651,-1.3187,45.48,93,100,6.91,GB,1706406005
390,beau vallon,-20.4189,57.6953,79.21,94,75,8.05,MU,1706406028
391,bentiu,9.2333,29.8333,69.31,21,99,6.2,SS,1706406029
392,viedma,-40.8135,-62.9967,70.11,56,2,18.1,AR,1706406029
393,shuangjiang,26.1547,109.7138,37.38,95,100,2.84,CN,1706406029
394,margate,51.3813,1.3862,43.9,80,100,5.01,GB,1706405958
395,new norfolk,-42.7826,147.0587,71.1,67,99,5.53,AU,1706406029
396,sayula de aleman,17.8667,-94.95,74.46,95,72,10.36,MX,1706406029
397,segezha,63.7415,34.3222,21.11,92,97,13.49,RU,1706406029
398,undurkhaan,47.3194,110.6556,-4.59,91,9,2.15,MN,1706406030
399,turpan,42.9333,89.1667,22.69,50,33,2.71,CN,1706406030
400,altamira,-3.2033,-52.2064,74.66,96,100,3.38,BR,1706406030
401,bazzano,44.5022,11.0854,53.29,100,100,3.44,IT,1706406030
402,northam,51.0333,-4.2167,51.66,92,100,12.84,GB,1706406030
403,sanctuary point,-35.1114,150.629,74.75,78,99,8.03,AU,1706406030
404,acapulco de juarez,16.8634,-99.8901,82.22,74,0,6.91,MX,1706405735
405,la pineda,41.0762,1.1852,55.33,88,100,4.61,ES,1706406031
406,fortaleza,-3.7227,-38.5247,85.21,89,75,11.5,BR,1706406031
407,whakatane,-37.9585,176.9854,72.52,96,100,1.01,NZ,1706406031
408,cameta,-2.2444,-49.4958,77.09,94,100,5.59,BR,1706406031
409,quellon,-43.1167,-73.6167,52.39,79,100,8.16,CL,1706406031
410,touros,-5.1989,-35.4608,81.03,79,100,10.38,BR,1706406031
411,maymana,35.9214,64.7836,52.07,65,97,7.94,AF,1706406032
412,lazaro cardenas,17.9583,-102.2,76.01,80,0,5.08,MX,1706406032
413,conceicao das alagoas,-19.9147,-48.3883,80.38,46,86,0.74,BR,1706406032
414,namie,37.4833,141.0,44.98,57,99,1.79,JP,1706406032
415,vila velha,-20.3297,-40.2925,75.15,97,75,3.44,BR,1706406032
416,port douglas,-16.4833,145.4667,87.85,68,75,8.72,AU,1706406032
417,hirara,24.8,125.2833,62.87,72,75,23.02,JP,1706406032
418,crane,31.3974,-102.3501,53.02,38,0,3.33,US,1706406032
419,cianorte,-23.6633,-52.605,62.42,89,100,5.32,BR,1706406032
420,piacabucu,-10.4056,-36.4344,79.84,82,99,11.36,BR,1706406033
421,taoudenni,22.6783,-3.9836,62.8,21,0,10.56,ML,1706406033
422,praia da vitoria,38.7333,-27.0667,57.45,72,20,26.49,PT,1706406033
423,colonia,50.9333,6.95,38.82,76,0,4.61,DE,1706405945
424,virginia,37.5481,-77.4467,55.38,78,100,12.66,US,1706406033
425,nguigmi,14.2495,13.1092,60.93,33,77,12.37,NE,1706406033
426,zemetchino,53.4973,42.6163,25.92,97,100,3.4,RU,1706406033
427,dellys,36.9172,3.9131,60.93,66,100,10.49,DZ,1706406034
428,itanhem,-17.1664,-40.33,75.06,96,100,3.53,BR,1706406034
429,trondheim,63.4305,10.3951,39.29,88,100,1.99,NO,1706405956
430,hudiksvall,61.729,17.1036,28.35,94,100,3.33,SE,1706406034
431,ceeldheer,3.8488,47.1806,78.35,87,60,12.8,SO,1706406034
432,cadale,2.7603,46.3222,79.29,84,16,14.34,SO,1706406034
433,cockburn town,21.4612,-71.1419,77.95,74,0,20.31,TC,1706406034
434,kaiapoi,-43.3783,172.6401,81.7,35,58,10.36,NZ,1706406034
435,namdrik,5.5994,168.1028,80.47,67,100,13.49,MH,1706406035
436,licheng,23.2955,113.8284,49.69,76,99,4.74,CN,1706406035
437,tyukhtet,56.5389,89.3011,0.36,97,96,5.88,RU,1706406035
438,lamu,-2.2717,40.902,80.82,86,6,11.16,KE,1706405930
439,bay roberts,47.5999,-53.2648,20.91,89,11,1.01,CA,1706406035
440,brigantine,39.4101,-74.3646,44.01,94,100,6.91,US,1706405934
441,ambodifotatra,-16.9833,49.85,78.44,77,33,5.35,MG,1706406035
442,khorixas,-20.3667,14.9667,75.83,47,2,4.29,NA,1706406035
443,yeed,4.55,43.0333,77.67,71,22,13.02,SO,1706406035
444,kayangel,8.0823,134.7173,81.14,85,100,17.58,PW,1706406036
445,antsiranana,-12.2787,49.2917,74.64,87,7,5.48,MG,1706406036
446,benguela,-12.5763,13.4055,80.15,81,88,6.73,AO,1706406036
447,hobyo,5.3505,48.5268,78.98,86,92,12.17,SO,1706406036
448,kirakira,-10.4544,161.9205,84.09,77,89,11.65,SB,1706406036
449,mildura,-34.2,142.15,78.08,49,15,4.7,AU,1706406037
450,akjoujt,19.6969,-14.4164,66.33,16,26,9.6,MR,1706406037
451,uba,-21.12,-42.9428,71.6,98,100,2.91,BR,1706406037
452,brena alta,28.65,-17.7833,65.32,32,0,2.3,ES,1706406037
453,severo-yeniseyskiy,60.3725,93.0408,-11.42,98,96,4.0,RU,1706406037
454,orchard homes,46.8633,-114.0484,36.84,85,100,1.99,US,1706406037
455,tofol,5.3248,163.0078,80.69,66,93,14.85,FM,1706406037
456,la peca,-5.6111,-78.435,73.35,75,100,4.74,PE,1706406037
457,callaway,30.153,-85.5699,64.94,96,100,6.91,US,1706406038
458,meizhou,24.2977,116.1072,46.8,88,100,2.28,CN,1706406038
459,pudozh,61.8099,36.5345,22.95,96,100,1.99,RU,1706406038
460,gariaband,20.635,82.0614,57.27,41,7,2.1,IN,1706406038
461,hilo,19.7297,-155.09,83.12,67,20,13.8,US,1706406038
462,aitape,-3.1374,142.3475,82.24,75,85,1.52,PG,1706406038
463,pueblo nuevo,23.3833,-105.3833,50.68,38,0,5.12,MX,1706406038
464,ar ruways,24.1103,52.7306,68.97,78,62,16.11,AE,1706405886
465,pangkalanbuun,-2.6833,111.6167,82.24,82,100,1.05,ID,1706406039
466,albu kamal,34.45,40.9186,44.56,52,48,9.6,SY,1706406039
467,savanna-la-mar,18.219,-78.1332,80.55,87,27,3.51,JM,1706406039
468,buka,40.8108,69.1986,42.1,62,100,2.04,UZ,1706406039
469,zakamensk,50.3741,103.2863,-0.45,90,10,0.67,RU,1706406039
470,penhalonga,-18.8911,32.6978,57.06,98,58,2.44,ZW,1706406039
471,kidal,18.4411,1.4078,59.45,27,0,10.63,ML,1706406039
472,sultanah,24.4926,39.5857,57.65,47,0,5.75,SA,1706406039
473,beaudesert,-27.9833,152.9833,78.69,94,100,1.57,AU,1706406040
474,ko lanta,7.5336,99.0865,80.19,73,76,16.02,TH,1706406040
475,sesimbra,38.4445,-9.1015,60.85,93,100,8.16,PT,1706406040
476,gadzhiyevo,69.2551,33.3362,33.26,80,92,36.48,RU,1706406040
477,francistown,-21.17,27.5079,70.79,54,95,5.44,BW,1706406040
478,kralendijk,12.15,-68.2667,78.78,83,40,12.66,BQ,1706406040
479,cartagena,10.3997,-75.5144,80.22,78,0,6.91,CO,1706406040
480,kudahuvadhoo,2.6708,72.8944,81.23,70,11,13.87,MV,1706406041
481,wynyard,-41.0,145.7167,64.44,83,99,10.89,AU,1706406041
482,tual,-5.6667,132.75,82.08,78,100,14.09,ID,1706406041
483,palora,-1.7,-77.9333,73.06,74,100,3.04,EC,1706406041
484,toliara,-23.35,43.6667,74.82,76,0,2.82,MG,1706406041
485,puerto ayacucho,5.6639,-67.6236,84.63,39,62,8.57,VE,1706406041
486,huarmey,-10.0681,-78.1522,75.31,82,61,7.52,PE,1706406041
487,beledweyne,4.7358,45.2036,77.56,74,9,9.57,SO,1706406041
488,andalusia,31.3085,-86.4833,66.06,96,40,4.61,US,1706406041
489,cherepovets,59.1333,37.9,3.43,100,99,4.38,RU,1706406042
490,st. john's,47.5649,-52.7093,20.55,88,0,9.22,CA,1706405913
491,chifeng,42.2683,118.9636,16.68,52,0,5.23,CN,1706406042
492,richards bay,-28.783,32.0377,71.76,88,87,7.29,ZA,1706406035
493,zolochiv,49.806,24.8944,32.5,99,100,9.73,UA,1706406042
494,aweil,8.7682,27.4002,67.96,21,100,6.24,SS,1706406042
495,valparaiso,-33.0393,-71.6273,67.48,80,100,6.91,CL,1706406042
496,weno,7.4515,151.8468,85.95,70,75,10.36,FM,1706406042
497,villa regina,-39.1,-67.0667,89.11,19,63,11.65,AR,1706406043
498,natal,-5.795,-35.2094,81.25,89,75,5.75,BR,1706406043
499,hefei,31.8639,117.2808,35.62,60,0,0.0,CN,1706406043
500,queenstown,-31.8976,26.8753,61.95,84,79,3.11,ZA,1706406043
501,naze,28.3667,129.4833,56.32,66,88,20.65,JP,1706406043
502,xilin hot,43.9667,116.0333,0.91,89,5,6.38,CN,1706406043
503,kapit,2.0167,112.9333,79.36,87,89,1.99,MY,1706406043
504,nyagan,62.1406,65.3936,4.5,98,99,2.93,RU,1706406043
505,springbok,-29.6643,17.8865,61.79,62,36,2.59,ZA,1706406044
506,papao,-17.75,-149.55,85.66,76,66,2.75,PF,1706406044
507,saint-pierre,-21.3393,55.4781,76.68,94,75,3.44,RE,1706406044
508,anna regina,7.2644,-58.5077,78.75,74,47,9.84,GY,1706406044
509,waverly,42.7392,-84.6208,37.56,94,100,8.05,US,1706406044
510,coahuayana de hidalgo,18.7,-103.6583,71.91,89,0,0.94,MX,1706406044
511,marsh harbour,26.5412,-77.0636,74.3,87,5,13.02,BS,1706406044
512,saudarkrokur,65.7461,-19.6394,25.56,87,100,7.61,IS,1706406044
513,tolanaro,-25.0319,46.9987,75.27,88,40,6.91,MG,1706406045
514,oyem,1.5995,11.5793,67.62,67,43,1.59,GA,1706406045
515,santa cruz,-17.8,-63.1667,85.46,62,75,6.91,BO,1706405865
516,narasingapuram,13.6167,79.3333,70.48,92,42,2.48,IN,1706406045
517,mahilyow,53.9139,30.3364,24.19,96,100,3.53,BY,1706406045
518,malango,-2.9627,119.9001,79.54,71,93,1.81,ID,1706406045
519,arawa,-6.2132,155.5367,81.63,84,100,0.83,PG,1706406045
520,macusani,-14.0833,-70.4333,41.14,89,100,4.25,PE,1706406045
521,nemuro,43.3236,145.575,31.89,87,100,12.8,JP,1706406046
522,meulaboh,4.1363,96.1285,77.13,91,100,1.39,ID,1706406046
523,accra,5.556,-0.1969,81.01,61,0,2.3,GH,1706405896
524,goz beida,13.95,20.55,59.76,20,0,7.56,TD,1706406046
525,berbera,10.4396,45.0143,75.99,88,97,1.74,SO,1706406046
526,delijan,33.9905,50.6838,38.1,59,77,10.76,IR,1706406046
527,marsabit,2.3284,37.9899,70.57,56,21,10.0,KE,1706406046
528,pacific grove,36.6177,-121.9166,65.88,73,0,6.91,US,1706406047
529,vilyuysk,63.7553,121.6247,-43.01,100,87,3.0,RU,1706406047
530,itoman,26.1247,127.6694,65.17,67,75,24.16,JP,1706406047
531,arroyo,41.6096,-4.7969,49.21,60,100,5.75,ES,1706406047
